gppd_idnr,name,latitude,longitude,total_no2,total_weighted_no2
USA0001233,Fort Dodge,37.7328,-99.9497,0.0,0.0
USA0003008,Mooreland,36.4372,-99.2254,0.6187085034780069,1.652558909468522
USA0003006,Anadarko Plant,35.0847,-98.23,1.76936659178406,3.3865073449410756
USA0000762,Ponca,36.7198,-97.0858,0.0,0.0
USA0055651,Spring Creek Energy Center,35.7422,-97.655,0.0,0.0
USA0055463,Redbud Power Plant,35.6856,-97.2264,40.29239955234116,33.43604023874466
USA0055457,McClain Energy Facility,35.2977,-97.5898,5.241040249008422,6.023118638451157
USA0055501,Kiamichi Energy Facility,34.6831,-95.9349,25.833282482196232,22.35292318671636
USA0055225,Oneta Energy Center,36.0119,-95.6967,29.854459487316053,27.879849235982828
USA0055146,Green Country Energy LLC,35.9833,-95.9346,16.522570760210975,18.810905830218218
USA0056502,Emporia Energy Center,38.4459,-96.0652,6.078423768715094,6.908615373970303
USA0056151,South Harper,38.6803,-94.4824,0.0,0.0
USA0001294,Kaw,39.0867,-94.6514,0.0,0.0
USA0055178,Dogwood Energy Facility,38.7931,-94.3006,4.424012381429673,6.866399999167953
USA0056328,Harry D Mattison Gas Plant,36.1855,-94.2841,0.0,0.0
USA0055221,Harry L. Oswald,34.5923,-92.2166,2.4036126318157156,2.833204504263015
USA0007604,St Francis Energy Facility,36.5852,-90.1779,1.5870520061227114,2.476907487182237
USA0055234,Audrain Generating Station,39.3092,-91.5369,6.2543921094424215,6.024259851473522
USA0001081,Riverside,41.54,-90.4481,0.0,0.0
USA0001048,Milton L Kapp,41.8081,-90.2336,0.0,0.0
USA0007754,Nodaway,40.2877,-94.7913,0.5145816649077598,1.4223529534734698
USA0007985,Greater Des Moines,41.5563,-93.5283,4.659565798325742,4.755799461009463
USA0001077,Sutherland,42.0473,-92.8594,0.017636824357684933,0.26206660886671773
USA0008031,Emery Station,43.094,-93.2922,2.2826435822093782,3.882961562944512
USA0001888,Fox Lake,43.6728,-94.7075,0.0,0.0
USA0001912,High Bridge,44.9314,-93.1117,5.806073406472305,8.904351498119158
USA0001904,Black Dog,44.8108,-93.2501,0.0,0.0
USA0055558,Combined Locks Energy Center,44.2717,-88.3011,0.0,0.0
USA0004040,Port Washington Generating Station,43.3842,-87.8689,34.65846064584037,30.025160796049924
USA0055641,Riverside Energy Center,42.5831,-89.0358,4.870483732649719,7.751201289249683
USA0004059,Sheepskin,42.8347,-89.1108,0.0,0.0
USA0055236,Lee Energy Facility,41.8287,-89.4054,9.544849108320797,8.428093836564237
USA0055183,Nelson Energy Center,41.7744,-89.6072,2.936454979800286,3.62317513448873
USA0055296,Calumet Energy Team LLC,41.6835,-87.5563,0.0,0.0
USA0055281,Southeast Chicago Energy Project,41.7181,-87.5449,4.262813329866568,10.528056510632698
USA0055199,Elwood Energy LLC,41.4388,-88.1236,99.27450519076066,77.7922417651749
USA0055222,Lincoln Generating Facility,41.3933,-87.9436,6.921324394057569,11.205688687899695
USA0055131,Kendall County Generation Facility,41.4797,-88.2581,42.43522835297593,39.76313088664332
USA0055279,Aurora,41.8151,-88.2265,48.565730976170826,41.85488762895005
USA0055109,Rocky Road Power LLC,42.0931,-88.2397,0.0,0.0
USA0001007,Noblesville,40.0969,-85.9714,0.5611406025319037,1.6193491906404376
USA0007763,Henry County,39.9528,-85.5039,0.0,0.0
USA0055101,Kalamazoo River Generating Station,42.2813,-85.495,0.0,0.0
USA0055087,Zeeland Generating Station,42.8206,-85.9975,13.394772267281134,13.667021115795606
USA0007984,Kalkaska CT #1,44.6889,-85.2019,0.0,0.0
USA0055402,Renaissance Power Plant,43.1864,-84.8429,7.448816171968268,7.170672984760816
USA0058427,Lansing BWL REO Town Plant,42.7197,-84.5517,0.0,0.0
USA0001719,Thetford,43.1567,-83.6286,0.0,0.0
USA0001730,Hancock,42.5497,-83.4425,0.0,0.0
USA0055990,Ashtabula,41.89,-80.7612,0.0,0.0
USA0055233,Handsome Lake Energy LLC,41.2908,-79.8061,0.0,0.0
USA0055516,Fayette Energy Facility,39.8592,-79.9182,8.370622558498324,9.050471684856145
USA0055350,Dresden Energy Facility,40.0928,-82.0276,3.8328023522271133,5.44882078907114
USA0055263,Galion Generating Station,40.7167,-82.789,0.0,0.0
USA0001728,Delray,42.2947,-83.1019,0.0,0.0
USA0055088,Dearborn Industrial Generation,42.3026,-83.154,18.511346084574328,26.094809880966405
USA0007972,Sumpter,42.167,-83.5318,1.4131005982558744,2.825857705760519
USA0055701,Fremont Energy Center,41.3771,-83.1614,7.398793479244984,7.469138920498698
USA0055270,Jackson Generating Station,42.2488,-84.3767,5.522433849105909,5.95006938067845
USA0007158,Woodsdale,39.4492,-84.4611,8.047454719453258,7.529223137100507
USA0007782,Hamilton Peaking,39.3528,-84.5183,0.0,0.0
USA0055502,Lawrenceburg Energy Facility,39.0911,-84.8669,41.07688016777592,36.643160197362135
USA0001353,Big Sandy,38.1707,-82.6176,0.0,0.0
USA0055284,Big Sandy Peaker Plant,38.3441,-82.5938,0.0,0.0
USA0055276,Ceredo Generating Station,38.3681,-82.5339,4.006127528197998,5.188744929215237
USA0055736,Hanging Rock Energy Facility,38.5731,-82.7833,34.07023918590813,30.28664577452382
USA0055401,Rolling Hills Generating,39.0839,-82.3328,15.061899645700214,14.917678090250387
USA0003775,Clinch River,36.9333,-82.1997,0.0,0.0
USA0055285,Wolf Hills Energy,36.6644,-82.1044,0.0,0.0
USA0002723,Dan River,36.4862,-79.7208,5.677975260916288,5.601972179951417
USA0055043,Cherokee County Cogen,35.0727,-81.613,0.0,0.0
USA0003405,John Sevier,36.3767,-82.9639,15.105105454282118,14.616538091856807
USA0055292,Decatur Energy Center,34.6292,-87.0214,11.28254677375453,10.499794023640078
USA0055293,Morgan Energy Center,34.6397,-87.0639,13.752747743870241,11.755770247158223
USA0055164,Bluegrass Generating Station,38.3902,-85.4133,5.938903837238506,7.4829344572836
USA0007948,Lawrence County Station,38.8003,-86.4511,1.5708725253995082,2.517219081206721
USA0057842,Wabash Valley Power IGCC,39.53,-87.4247,0.0,0.0
USA0055224,Wheatland Generating Facility,38.6716,-87.2931,1.3609767309043084,2.515090860511339
USA0055334,Holland Energy Facility,39.2231,-88.7584,4.289360138089539,5.587918697561259
USA0055237,Energy Shelby County,39.2794,-88.4772,2.685547176716779,3.2540706648728563
USA0055417,Raccoon Creek Energy Center,38.6996,-88.5392,2.9249902430019032,3.4264091480256202
USA0007842,Freedom Power Project,39.1033,-88.859,0.0,0.0
USA0055202,Pinckneyville,38.1114,-89.3467,0.7577658703232373,1.6855619948372107
USA0007749,Essex,36.8682,-89.8402,0.01836323838575828,0.2921604816728132
USA0007858,MEPI GT Facility,37.2175,-88.8661,0.5750735540835639,1.7838073415754494
USA0055251,Gleason Generating Facility,36.2454,-88.612,2.037491986113137,3.113316840949037
USA0055081,Brownsville Peaking Power,35.5438,-89.198,0.0,0.0
USA0055063,Batesville Generation Facility,34.3356,-89.9275,9.752702507877054,10.421860924205289
USA0055706,Choctaw County,33.2881,-89.4201,5.263850475911077,5.144025860791962
USA0002048,Sweatt,32.2925,-88.7461,0.0,0.0
USA0055197,Caledonia,33.6464,-88.2717,6.153923396739441,7.1358567371924355
USA0056018,AMEA Peaking,33.1661,-86.2825,0.0,0.0
USA0007813,Sewell Creek Energy,33.9486,-85.2769,3.5277661001408145,3.835712132196589
USA0007917,Chattahoochee Energy Facility,33.4072,-85.0386,3.8179828998353256,4.437951102952565
USA0055411,Hillabee Energy Center,33.0007,-85.9033,7.7743226876660465,7.249064768797682
USA0055138,Walton Discover Power Facility,32.541,-85.0389,0.0,0.0
USA0055242,Santa Rosa Energy Center,30.5664,-87.115,0.0,0.0
USA0007988,Silver Creek,31.6004,-89.9468,0.18732744986684494,0.688314393589005
USA0007873,H L Culbreath Bayside Power Station,27.9072,-82.4231,144.52623989439377,100.89104880065912
USA0055412,Osprey Energy Center Power Plant,28.0525,-81.8083,3.842343437615836,3.905917131326751
USA0054365,Orange Cogeneration Facility,27.8708,-81.8251,0.0,0.0
USA0007699,Tiger Bay,27.7464,-81.8494,0.0,0.0
USA0006043,Martin,27.0536,-80.5628,317.8238512287487,126.29478868982345
USA0007345,University of Florida,29.6403,-82.3486,0.0,0.0
USA0055244,Doyle Energy Facility,33.8377,-83.6996,3.109242978818017,4.58342073235039
USA0055672,AL Sandersville LLC,33.1189,-82.8608,5.70638007504095,4.931072467472231
USA0058260,Brunswick County Power Station,36.765,-77.7139,41.591362602385274,35.37169866445982
USA0003796,Bremo Bluff,37.7089,-78.2878,0.0,0.0
USA0055298,Fairless Energy Center,40.1475,-74.7411,82.1756473233892,75.60409833662352
USA0050497,Bayonne Plant Holding LLC,40.6553,-74.1124,0.0,0.0
USA0058079,Newark Energy Center,40.7072,-74.1258,49.61413181932515,48.781239738525414
USA0007909,Vernon Boulevard,40.7537,-73.9508,0.0,0.0
USA0007915,North 1st,40.7171,-73.9664,0.0,0.0
USA0007913,Hell Gate,40.799,-73.9094,0.0,0.0
USA0007914,Harlem River Yard,40.7991,-73.9156,0.0,0.0
USA0057839,Woodbridge Energy Center,40.515,-74.3189,33.558354324089805,38.28585160908293
USA0010308,Sayreville Cogeneration Facility,40.439,-74.3444,5.516632045564873,8.443766089648465
USA0056397,Hunlock Unit 4,41.2025,-76.0683,0.0,0.0
USA0055193,Ontelaunee Energy Center,40.4219,-75.9356,10.043065488549102,14.002434453542815
USA0055337,TalenEnergy Ironwood LLC,40.3509,-76.3658,11.375424821841197,11.178982227947564
USA0055231,Liberty Electric Power Plant,39.8614,-75.3358,9.13976962509616,13.936030554757137
USA0050561,Eagle Point Power Generation,39.8746,-75.1592,0.0,0.0
USA0010751,Camden Plant Holding LLC,39.9175,-75.1192,0.0,0.0
USA0056963,West Deptford Energy Station,39.8414,-75.2214,17.443561459845927,19.599111132008392
USA0007153,Hay Road,39.7436,-75.5072,57.74707673812407,48.34380124516841
USA0058235,Clayville,39.4244,-75.02,0.0,0.0
USA0001553,Gould Street,39.2663,-76.6047,0.0,0.0
USA0001560,Westport,39.266,-76.6295,0.0,0.0
USA0055976,Hunterstown Power Plant,39.8725,-77.1672,19.732784130926635,21.885300570220174
USA0058426,Panda Patriot Generation Plant,41.1808,-76.8392,9.682142841724808,9.979829343361313
USA0055107,Rhode Island State Energy Center,41.8017,-71.5186,1.9391140927821657,2.925760048286579
USA0055026,Dighton Power Plant,41.8312,-71.1239,0.0,0.0
USA0055041,Berkshire Power,42.0476,-72.6478,0.0,0.0
USA0055042,Bridgeport Energy Project,41.1692,-73.1844,8.505402802780175,9.706403051934789
USA0007912,Brentwood,40.7871,-73.2934,0.0,0.0
USA0055068,Maine Independence Station,44.8242,-68.7094,0.9313980104828984,1.3478921113369373
USA0055100,Rumford Power  Inc,44.5303,-70.5219,0.0,0.0
USA0054574,Saranac Facility,44.7132,-73.4557,0.0,0.0
USA0054592,Massena Energy Facility,44.9503,-74.8928,0.0,0.0
USA0055102,Livingston Generating Station,45.0304,-84.7308,0.0,0.0
USA0059926,Alpine Power Plant,45.0637,-84.8253,0.0,0.0
USA0001891,Syl Laskin,47.5306,-92.1619,0.0,0.0
USA0056238,Groton Generating Station,45.3735,-98.0987,0.0,0.0
USA0057881,Pioneer Generating Station,48.2325,-103.9528,0.0,0.0
USA0057943,Lonesome Creek Station,47.7967,-103.5786,0.0671993238402305,0.4696151435968513
USA0054476,Sumas Power Plant,48.9905,-122.2733,0.0,0.0
USA0055818,Frederickson Power LP,47.0861,-122.3657,2.138930995381552,4.687377460429744
USA0055700,Mint Farm Generating Station,46.1388,-122.9855,1.3656052536844232,2.813341035845989
USA0056227,Port Westward,46.1789,-123.172,2.723088596062666,3.164875426471074
USA0055482,Goldendale Generating Station,45.8114,-120.833,0.0,0.0
USA0054761,Hermiston Generating Plant,45.8042,-119.37,6.233965484784074,8.908951239328758
USA0007953,Evander Andrews Power Complex,43.1792,-115.7343,0.5537795854854768,1.4758843922162266
USA0057028,Langley Gulch Power Plant,43.9044,-116.8197,0.0,0.0
USA0058503,Carty Generating Station,45.6986,-119.8131,4.48746037244422,4.7077115481789145
USA0007350,Coyote Springs,45.848,-119.6739,0.7712538082356631,2.1003234570232867
USA0055544,Klamath Expansion Project,42.1727,-121.8144,0.0,0.0
USA0056532,Colusa Generating Station,39.3661,-122.27,8.110358319143344,9.112544620164446
USA0055813,Yuba City Energy Center,39.1392,-121.6387,0.0,0.0
USA0010349,Greenleaf 2 Power Plant,39.1365,-121.6397,0.0,0.0
USA0055855,Wolfskill Energy Center,38.2285,-122.0752,0.0,0.0
USA0055626,Lambie Energy Center,38.2216,-121.8683,0.0,0.0
USA0055625,Creed Energy Center,38.2422,-121.8547,0.0,0.0
USA0055627,Goose Haven Energy Center,38.2268,-121.8433,0.0,0.0
USA0056476,Gateway Generating Station,38.0175,-121.7587,11.939652011502396,15.38608852503727
USA0057267,Marsh Landing Generating Station,38.0169,-121.765,18.405569511759044,18.373850592284956
USA0055963,Riverview Energy Center,38.0144,-121.7907,0.0,0.0
USA0055393,Metcalf Energy Center,37.2207,-121.7457,13.647931945071667,13.78522444151264
USA0055748,Los Esteros Critical Energy Center,37.425,-121.9319,0.0,0.0
USA0056026,Donald Von Raesfeld Power Plant,37.3767,-121.9508,0.0,0.0
USA0057483,Mariposa Energy Project,37.7892,-121.6019,0.291616581231694,1.57024917278635
USA0055933,Tracy Combined Cycle Power Plant,37.7107,-121.4906,0.0,0.0
USA0056135,Ripon Generation Station,37.7315,-121.116,0.0,0.0
USA0056078,Walnut Energy Center,37.4878,-120.8956,2.028209098687367,5.10332167739828
USA0007315,Almond Power Plant,37.5744,-120.985,0.0,0.0
USA0010034,Gilroy Power Plant,37.0001,-121.5367,0.0,0.0
USA0055810,Gilroy Peaking Energy Center,36.999,-121.5363,0.0,0.0
USA0010294,King City Power Plant,36.225,-121.1278,0.0,0.0
USA0050865,Salinas River Cogeneration,35.9515,-120.8679,0.0,0.0
USA0050131,Coalinga Cogeneration,36.1807,-120.3885,0.0,0.0
USA0050750,Coalinga Cogeneration Facility,36.1703,-120.3641,0.0,0.0
USA0056803,Panoche Energy Center,36.6514,-120.5833,2.7746829544631852,4.074313575052749
USA0055807,Henrietta Peaker,36.2397,-119.9044,0.0,0.0
USA0055698,Hanford Energy Park Peaker,36.2701,-119.6481,0.0,0.0
USA0002330,Fort Churchill,39.1281,-119.1322,0.2743910808273411,1.0463297412936483
USA0002336,Tracy,39.5625,-119.525,27.51912020283133,29.218936170108385
USA0057978,Lodi Energy Center,38.0881,-121.3875,0.0,0.0
USA0007552,SPA Cogen 3,38.511,-121.4735,0.0,0.0
USA0056298,Roseville Energy Park,38.7928,-121.3811,0.0,0.0
USA0055847,Feather River Energy Center,39.1093,-121.6093,0.0,0.0
USA0006013,Olive,34.1764,-118.3147,0.0,0.0
USA0057901,El Segundo Energy Center LLC,33.9106,-118.425,25.082886731063354,25.940940644961383
USA0000356,AES Redondo Beach LLC,33.8504,-118.395,146.66671465470745,138.01606845921225
USA0000422,Glenarm,34.126,-118.1494,0.0,0.0
USA0010169,Carson Cogeneration,33.8759,-118.2491,0.0,0.0
USA0057515,Walnut Creek Energy Park,34.0087,-117.9449,38.192848829355235,39.14170424588767
USA0000331,Etiwanda Generating Station,34.0912,-117.5266,36.83316002998462,36.382829722786575
USA0055518,High Desert Power Plant,34.5953,-117.3647,24.133064524103414,24.200550940545064
USA0010761,Las Vegas Generating Station,36.2319,-115.1222,0.0,0.0
USA0002322,Clark (NVE),36.0875,-115.0507,107.62354248176726,100.22004189198262
USA0055322,Chuck Lenzie Generating Station,36.3837,-114.9218,62.50932150820256,51.02101113239941
USA0055841,Silverhawk,36.4078,-114.9606,10.777751858983528,12.737663779099483
USA0055514,Apex Generating Station,36.416,-114.9609,5.49097871089068,9.13441006803932
USA0007082,Harry Allen,36.4306,-114.9024,11.896032478386857,12.042490398100956
USA0056482,Black Mountain Generating Station,35.0361,-114.1594,0.0,0.0
USA0055177,South Point Energy Center,34.8678,-114.5317,9.761082423486528,10.53174341089174
USA0055077,Desert Star Energy Center,35.7889,-114.9942,8.641462665813805,7.938210465347833
USA0057074,Ivanpah 1,35.5331,-115.4525,0.0,0.0
USA0057073,Ivanpah 2,35.5561,-115.4686,0.0,0.0
USA0055687,Higgins Generating Station,35.6139,-115.3561,5.926456002235095,8.21865622951472
USA0057075,Ivanpah 3,35.5808,-115.4825,0.0,0.0
USA0056569,Niland Gas Turbine Plant,33.2388,-115.5045,0.028104625185478082,0.43913963978228443
USA0055295,Blythe Energy Inc,33.6157,-114.6865,3.392741988244806,4.692692369933529
USA0055282,Arlington Valley Energy Facility,33.3417,-112.8897,10.139766457283514,11.992359236158647
USA0055306,Gila River Power Station,32.975,-112.6944,6.0591343189354,9.061389780032414
USA0054694,Yuma Cogeneration Associates,32.7288,-114.6541,0.0,0.0
USA0000389,El Centro,32.8022,-115.54,0.0,0.0
USA0057555,Pio Pico Energy Center,32.5739,-116.9178,0.0,0.0
USA0055540,Chula Vista Energy Center,32.5917,-117.0586,0.0,0.0
USA0057001,El Cajon Energy Center,32.7961,-116.9721,0.0,0.0
USA0055853,Inland Empire Energy Center,33.7388,-117.1704,29.53216568699721,27.759722816985573
USA0054749,Goal Line LP,33.1185,-117.0995,0.0,0.0
USA0055538,Escondido Energy Center,33.1261,-117.1172,0.0,0.0
USA0056232,Miramar Energy Facility,32.8769,-117.1664,0.0,0.0
USA0000358,Mountainview Generating Station,34.0818,-117.2418,107.1559637594587,107.9722126062448
USA0055951,Agua Mansa Power Plant,34.0414,-117.3603,0.0,0.0
USA0056143,Riverside Energy Resource Center,33.9636,-117.4528,0.0,0.0
USA0057027,Canyon Power Plant,33.8581,-117.8617,0.0,0.0
USA0000315,AES Alamitos LLC,33.7688,-118.1009,415.23888407005154,316.2665609356775
USA0000341,Long Beach Generation LLC,33.7641,-118.2248,0.0,0.0
USA0000350,Ormond Beach,34.1292,-119.1689,83.58321745957012,68.21509620924444
USA0055656,Pastoria Energy Facility  LLC,34.9556,-118.844,12.813119975519708,13.861931555368823
USA0010650,Badger Creek Limited,35.4837,-119.0299,0.0,0.0
USA0054768,Live Oak Limited,35.4837,-119.0298,0.0,0.0
USA0010649,Bear Mountain Limited,35.4192,-118.9266,0.0,0.0
USA0058122,Delano Energy Center,35.7909,-119.2945,0.0,0.0
USA0050612,McKittrick Limited,35.3195,-119.662,0.0,0.0
USA0055182,Sunrise Power LLC,35.2097,-119.585,8.731867647193685,7.7968311266839345
USA0055089,Taft Cogeneration Facility,29.9888,-90.4599,17.606602654452516,17.262121715782968
USA0001439,Houma,29.5806,-90.7225,0.0,0.0
USA0058478,LEPA Unit No. 1,29.6911,-91.1928,0.0,0.0
USA0001464,Big Cajun 1,30.6739,-91.3556,0.0,0.0
USA0056108,T J Labbe Electric Generating,30.2554,-92.0433,0.0,0.0
USA0056283,Hargis-Hebert Electric Generating,30.1694,-91.9923,0.0,0.0
USA0001396,Coughlin Power Station,30.8439,-92.2611,10.062463858780234,11.023014847714544
USA0055218,Hinds Energy Facility,32.379,-90.2199,4.23971199934433,3.9975684393851307
USA0055395,Crossroads Energy Center,34.183,-90.5621,0.0,0.0
USA0055620,Perryville Power Station,32.6908,-92.0183,5.298807786678286,5.250442206821344
USA0055380,Union Power Station,33.2961,-92.5894,70.98887927096047,48.07142288905046
USA0000170,Lake Catherine,34.4341,-92.9049,0.0,0.0
USA0007825,Fulton (AR),33.6094,-93.7924,0.0,0.0
USA0055176,Eastman Cogeneration Facility,32.4481,-94.6903,3.644840444524942,5.1197387156008265
USA0055664,Harrison County Power Project,32.3958,-94.4367,2.730209184467585,3.826355183946387
USA0001416,Arsenal Hill,32.5181,-93.7611,0.0,0.0
USA0056603,San Jacinto County Peaking Facility,30.4193,-95.0118,0.0,0.0
USA0056604,Hardin County Peaking Facility,30.3038,-94.2526,0.0,0.0
USA0006558,D G Hunter,31.3207,-92.4613,0.0,0.0
USA0055358,Cottonwood Energy Project,30.2588,-93.7353,30.493399321201373,26.725763521603383
USA0003459,Sabine,30.0242,-93.878,71.87736884218091,60.91840604349024
USA0050625,ExxonMobil Beaumont Refinery,30.0636,-94.0753,3.243075214343057,3.913397459399102
USA0055327,Baytown Energy Center,29.7731,-94.9019,23.04714859558854,24.773670495871418
USA0056806,Cedar Bayou 4,29.7516,-94.9231,4.237964682383092,7.784453549623535
USA0003460,Cedar Bayou,29.75,-94.9256,73.98252710983004,63.13827146019987
USA0003468,Sam Bertron,29.7268,-95.0598,25.04819177173703,27.732222064551635
USA0007325,San Jacinto Steam Electric Station,29.6948,-95.0406,0.0,0.0
USA0010298,Bayou Cogen Plant,29.6225,-95.0458,0.0,0.0
USA0055464,Deer Park Energy Center,29.7134,-95.1345,58.18907797370058,51.34638087131211
USA0003464,Greens Bayou,29.8222,-95.2194,23.911941969743545,25.307679319716858
USA0055299,Channel Energy Center LLC,29.7189,-95.2319,26.720114044884298,24.204921146447305
USA0003469,T H Wharton,29.9417,-95.5306,43.48641851728999,41.733320286406695
USA0055357,Brazos Valley Generating Facility,29.4731,-95.6244,5.222399977064623,7.339687658838443
USA0056350,Colorado Bend Energy Center,29.2878,-96.0683,3.993448845136685,4.375703477404497
USA0050137,Newgulf Cogen,29.2639,-95.8997,0.0,0.0
USA0055015,Sweeny Cogen Facility,29.0728,-95.745,2.1099187388451233,2.932040804010499
USA0003443,Victoria,28.7883,-97.01,0.9672004175315034,1.9588907363027135
USA0056674,Winchester Power Park,30.0381,-96.9875,0.2189065903327206,0.9341027459650905
USA0003601,Sim Gideon,30.1456,-97.2708,1.848156491160519,3.1885399914325983
USA0003548,Decker Creek,30.3033,-97.6128,18.874121637784796,20.086635630126764
USA0055168,Bastrop Energy Center,30.1458,-97.55,2.8650429293480784,4.287941858352842
USA0058001,Panda Temple Power Station,31.0558,-97.3172,43.75057541167375,34.94615749275621
USA0003457,Lewis Creek,30.4356,-95.5214,1.422497600038585,3.131986458515648
USA0003576,Ray Olinger,33.0681,-96.4525,1.3980027710298464,3.424182675361052
USA0058005,Panda Sherman Power Station,33.5826,-96.6179,9.277713656841987,9.983500634413103
USA0004266,Spencer,33.1975,-97.1061,0.0,0.0
USA0055480,Forney Energy Center,32.7563,-96.4916,120.8941446882202,94.88507075169869
USA0055091,Midlothian Energy Facility,32.4302,-97.0537,91.76865813004427,72.84020847914766
USA0055172,Bosque County Peaking,31.8594,-97.3586,7.45489831359953,6.425824442618901
USA0055230,Jack County,33.101,-97.9574,30.006903788423802,28.46184153271295
USA0055320,Wise County Power LLC,33.0583,-97.9103,8.210226451119366,8.41729155113422
USA0003490,Graham,33.1344,-98.6117,2.316317769663776,4.715736653565408
USA0004937,Thomas C Ferguson,30.558,-98.3705,2.480627650845317,3.3042117503100243
USA0003609,Leon Creek,29.3525,-98.5761,0.0,0.0
USA0055153,Guadalupe Generating Station,29.6244,-98.1419,28.253307263127866,25.251084240825943
USA0055144,Hays Energy Project,29.7806,-97.9894,13.109716296099213,13.42160978117994
USA0003439,Laredo,27.5667,-99.5089,0.0,0.0
USA0055123,Magic Valley Generating Station,26.3403,-98.19,7.523732239013846,7.404569078135564
USA0055086,Gregory Power Facility,27.8893,-97.2584,2.708771448078268,3.6238979372457027
USA0003441,Nueces Bay,27.8194,-97.4192,7.432791267297481,6.5943725136673415
USA0055206,Corpus Christi Energy Center,27.8139,-97.4283,3.164204554751922,3.840056455333026
USA0000118,Saguaro,32.5517,-111.3,0.0,0.0
USA0002444,Rio Grande,31.8047,-106.5472,0.0,0.0
USA0055210,Afton Generating Station,32.1142,-106.8465,0.0,0.0
USA0055343,Luna Energy Facility,32.2993,-107.7834,6.400927552276866,7.192234980648115
USA0058471,Ector County Energy Center,32.0692,-102.5856,1.7406140687560048,3.1537403889335405
USA0055215,Odessa Ector Generating Station,31.8403,-102.3264,33.045510641878835,32.715232108371005
USA0056349,Quail Run Energy Center,31.8414,-102.315,5.3060994367963135,6.011065420272727
USA0055065,Mustang Station,32.9728,-102.7417,0.0,0.0
USA0002454,Cunningham,32.7131,-103.3533,1.3738252944006208,2.538962866230031
USA0002446,Maddox,32.7142,-103.3015,0.0,0.0
USA0056458,Hobbs Generating Station,32.7283,-103.3094,9.002631460825889,9.919398890210566
USA0003604,J Robert Massengale,33.6039,-101.8408,0.0,0.0
USA0003602,Ty Cooke,33.5211,-101.7906,0.0,0.0
USA0055064,Black Hawk Station,35.6957,-101.36,0.0,0.0
USA0001230,Cimarron River,37.1611,-100.7619,0.0,0.0
USA0001336,Garden City,37.9703,-100.8956,0.44990168133081576,1.490527788480989
USA0055283,Front Range Power Plant,38.6281,-104.7069,8.013155249988372,7.355506067320519
USA0055453,Fountain Valley Power Facility,38.5569,-104.6875,0.35927606788839234,1.511780002946868
USA0056998,Pueblo Airport Generating Station,38.3208,-104.5264,3.4662963347409947,4.800018807723312
USA0058284,La Luz Energy Center,34.6161,-106.815,0.0,0.0
USA0055129,Desert Basin,32.9042,-111.7889,5.119731458690444,9.469896525550347
USA0055522,Sundance,32.9285,-111.5899,7.88465754523878,10.96180058577738
USA0000116,Ocotillo,33.4225,-111.9122,0.0,0.0
USA0000117,West Phoenix,33.4417,-112.1583,124.32589924279117,116.1281969033365
USA0008068,Santan,33.3325,-111.7503,71.61281076673427,62.85309036934048
USA0056237,Lake Side Power Plant,40.3317,-111.7542,81.49416373139034,67.32551808147201
USA0056177,Nebo Power Station,40.0614,-111.7294,0.0,0.0
USA0003648,Gadsby,40.7686,-111.9289,7.904518043518081,11.45963981120143
USA0006112,Fort St Vrain,40.2461,-104.8742,50.244515823305726,47.1297826933517
USA0055835,Rocky Mountain Energy Center,40.0908,-104.5953,8.200838776175996,7.736235623533449
USA0055200,Arapahoe Combustion Turbine Project,39.6692,-105.0018,0.0,0.0
USA0010682,Brush Generation Facility,40.2415,-103.631,0.0,0.0
USA0057703,Cheyenne Prairie Generating Station,41.1236,-104.72,0.0,0.0
USA0056610,Deer Creek Station,44.2908,-96.5267,0.0,0.0
USA0008000,Beatrice,40.3302,-96.8082,0.35828876855716846,1.1691298432662025
USA0002226,Canaday,40.6942,-99.7011,0.0,0.0
USA0001235,Great Bend - Sunflower,38.41,-98.8689,0.0,0.0
USA0008059,Comanche (OK),34.5431,-98.3244,0.0,0.0
USA0002964,Southwestern,35.1009,-98.3524,5.609577030887213,7.167209521505328
USA0002953,Mustang,35.4699,-97.675,3.3153168081233155,4.524390955820784
USA0002951,Horseshoe Lake,35.5087,-97.1797,13.291841830996342,13.314392418855821
USA0004940,Riverside (OK),35.9978,-95.9567,24.404699919696796,24.281990055439156
USA0002965,Tulsa,36.1165,-95.991,1.2409219123944386,3.184371662116191
USA0001271,Coffeyville,37.0373,-95.6127,0.0,0.0
USA0001268,Chanute 2,37.6953,-95.4586,0.0,0.0
USA0007013,East 12th Street,37.2367,-96.9625,0.0,0.0
USA0001240,Gordon Evans Energy Center,37.7903,-97.5217,12.965194722992727,12.566865924827706
USA0001305,McPherson 2,38.3634,-97.6834,0.0,0.0
USA0008037,Clifton,39.6125,-97.2778,0.0,0.0
USA0001295,Quindaro,39.1492,-94.6381,3.416982292374244,5.2135884134684405
USA0002132,Blue Valley,39.0919,-94.3261,0.0,0.0
USA0006074,Greenwood (MO),38.8615,-94.2982,0.0,0.0
USA0007848,Holden,38.7538,-93.9983,0.0,0.0
USA0002122,Chillicothe,39.7834,-93.5641,0.0,0.0
USA0006651,Moberly,39.4244,-92.4837,0.0,0.0
USA0007296,State Line Combined Cycle,37.0659,-94.614,4.561879204516467,6.186732009003707
USA0001239,Riverton,37.0726,-94.6987,0.0,0.0
USA0006223,Empire Energy Center,37.1385,-94.1041,0.46552746418766994,1.157053795229421
USA0000201,Thomas Fitzhugh,35.4624,-93.8049,0.0,0.0
USA0000202,Carl Bailey,35.2601,-91.3634,0.0,0.0
USA0055340,Dell Power Station,35.8619,-90.0253,4.249104419417456,5.547884836894214
USA0002082,Fairgrounds,38.5935,-92.2206,0.0,0.0
USA0006652,Moreau,38.5557,-92.1023,0.0,0.0
USA0006650,Mexico,39.1481,-91.8306,0.0,0.0
USA0007964,Peno Creek,39.3531,-91.2295,0.0,0.0
USA0000913,Venice,38.6642,-90.1764,3.5254450153198196,5.701515813589741
USA0001046,Dubuque,42.5031,-90.6586,0.0,0.0
USA0006063,Electrifarm,42.4407,-92.4205,0.0,0.0
USA0001206,Summit Lake,41.1136,-94.3472,0.0,0.0
USA0007145,Pleasant Hill,41.5572,-93.5242,0.0,0.0
USA0008029,Sycamore (IA),41.6722,-93.6769,0.0,0.0
USA0001068,Marshalltown,42.0474,-92.8594,0.10731027798075857,0.6452165575649349
USA0007155,Lime Creek,43.2481,-93.205,0.0,0.0
USA0056104,Mankato Energy Center,44.1988,-94.003,2.986265848801822,4.568726791364961
USA0007925,Lakefield Junction,43.7984,-94.8415,2.626059857841674,3.592996926211204
USA0002001,New Ulm,44.3159,-94.4581,0.0,0.0
USA0008027,Blue Lake,44.7855,-93.4315,5.330488537492492,7.299915820171206
USA0056164,Faribault Energy Park,44.3356,-93.2906,0.7758354459163928,1.6688475889610894
USA0006058,Cascade Creek,44.0322,-92.4908,0.0,0.0
USA0056241,Cannon Falls Energy Center,44.5367,-92.9155,0.6381450292841803,1.4776081075192646
USA0055010,LSP-Cottage Grove LP,44.7956,-92.9119,0.4445940659237263,1.6020133101700946
USA0001913,Inver Hills,44.781,-93.042,0.0,0.0
USA0056031,Fox Energy Center,44.3204,-88.2089,2.5936157132844575,2.8050700802380093
USA0055836,Island Street Peaking Plant,44.2761,-88.2658,0.0,0.0
USA0007203,South Fond Du Lac,43.7353,-88.4967,0.8402761657325014,1.7181733181584116
USA0006253,Germantown,43.1952,-88.1496,1.373404061693459,2.6682201301585593
USA0004042,Valley (WI),43.0303,-87.9233,0.0,0.0
USA0007270,Paris (WI),42.6658,-88.0131,1.3280988311441875,3.0374332475183206
USA0007159,Concord,43.1669,-88.69,1.5441395439467782,2.365507296627964
USA0004057,Rock River,42.5831,-89.0259,0.0,0.0
USA0055391,RockGen Energy Center,42.9767,-89.0492,4.604138893727541,4.273865439929147
USA0007991,West Campus Cogeneration Facility,43.0751,-89.4251,0.0,0.0
USA0055201,Gibson City Energy Center LLC,40.4705,-88.3987,0.0,0.0
USA0000886,Fisk Street,41.8508,-87.6533,0.0,0.0
USA0055392,Zion Energy Center,42.4776,-87.895,10.039856031075526,12.372624874752299
USA0007336,Anderson,40.0529,-85.7389,0.0,0.0
USA0055229,Montpelier Electric Generating Station,40.6206,-85.3057,0.0,0.0
USA0007268,491 E 48th Street,42.7553,-86.0853,0.0,0.0
USA0010745,Midland Cogeneration Venture,43.5861,-84.2242,62.359816777524465,48.459356618656855
USA0006035,Greenwood (MI),43.1056,-82.6964,16.693858504850162,16.2059626353466
USA0007579,Niles,41.168,-80.7529,0.0,0.0
USA0002945,Anadarko,39.757,-81.1155,0.0,0.0
USA0001866,Wyandotte,42.2081,-83.1453,0.0,0.0
USA0007872,Robert P Mone Plant,40.9297,-84.7392,3.53184060018212,3.3928258970909306
USA0002848,O H Hutchings,39.6088,-84.2921,0.0,0.0
USA0055248,Tait Electric Generating Station,39.7277,-84.2095,2.5423709618185164,3.9986472818292342
USA0055247,Darby Electric Generating Station,39.7139,-83.1778,1.786316159210467,2.9499103477799755
USA0055116,Rockingham County CT Station,36.3297,-79.8297,16.114429134137204,17.3019704412108
USA0002720,Buck,35.7133,-80.3767,6.630853944300847,10.520476980382579
USA0002707,Blewett,34.9833,-79.8775,0.0,0.0
USA0003250,Darlington County,34.4185,-80.1657,12.318891918848614,10.408821257151967
USA0007277,Lincoln Combustion,35.4317,-81.0347,89.96027663081107,70.90494098135574
USA0007981,Mill Creek (SC),35.1597,-81.4306,8.234309695655277,6.917308134709973
USA0055166,Broad River Energy Center,35.0786,-81.575,16.205513598210707,13.585594686963985
USA0054538,Hartwell Energy Facility,34.3396,-82.8199,1.5296574138686643,2.7943916556157964
USA0001363,Cane Run,38.1831,-85.8892,12.019926634752714,12.909881368500717
USA0007335,Richmond,39.8396,-84.9657,0.0,0.0
USA0055204,Kinmundy,38.7619,-89.0128,0.0,0.0
USA0007425,Interstate,39.8233,-89.5891,0.0,0.0
USA0000964,Lakeside,39.7573,-89.6005,0.0,0.0
USA0055232,Marshall Energy Facility,37.0286,-88.3958,8.632462233495893,9.27130523417702
USA0000047,Colbert,34.7439,-87.8486,0.0,0.0
USA0007845,Lagoon Creek,35.6578,-89.3964,45.029640456085374,36.73061454170643
USA0007960,Kemper County,32.7976,-88.606,0.547500710255836,1.2511212598169743
USA0055061,Tenaska Georgia Generation Facility,33.3516,-84.9996,16.973362411463214,16.517520494746037
USA0055409,Calhoun Energy Center,33.5883,-85.9731,7.7230065839720226,7.913672907106562
USA0055271,Tenaska Lindsay Hill Generating Station,32.6514,-86.7386,8.458137359342636,8.893205090760151
USA0000533,McWilliams,31.4003,-86.4764,3.5803317626421265,4.242497207682753
USA0055241,Hog Bayou Energy Center,30.7478,-88.0575,0.5342301535486683,1.5817261853833207
USA0007063,McIntosh (AL),31.2546,-88.0299,3.4735942070794135,4.804061856683518
USA0008048,Anclote,28.1844,-82.7886,24.53829282295754,23.16292202604582
USA0000634,P L Bartow,27.8595,-82.6018,59.16575289524229,50.46280190999952
USA0006042,Manatee,27.6058,-82.3456,195.08286456419918,118.16016164377248
USA0006584,Stock Island,24.5633,-81.7342,0.0,0.0
USA0000673,Tom G Smith,26.6128,-80.0677,0.0,0.0
USA0000617,Port Everglades,26.0856,-80.1253,37.2373197446431,30.161491372904575
USA0056407,West County Energy Center,26.6986,-80.3747,299.44064307922514,121.43762494312111
USA0000613,Lauderdale,26.0686,-80.1984,121.73350390200298,87.94606217515177
USA0000612,Fort Myers,26.6967,-81.7831,116.50189090132258,76.36726301084008
USA0007380,Midulla Generating Station,27.6417,-81.9625,9.465355870398197,10.112395435437694
USA0050949,Hardee Power Station,27.6364,-81.9636,0.8602390774939334,2.152009094888755
USA0055833,Auburndale Peaker Energy Center,28.0535,-81.8059,0.0,0.0
USA0007302,Hines Energy Complex,27.7882,-81.87,87.49179412369135,62.97408387003673
USA0054426,Mulberry Cogeneration Facility,27.8489,-81.8775,0.0,0.0
USA0008049,Intercession City,28.2628,-81.5486,23.98504597684321,22.703159028470736
USA0007238,Cane Island,28.2764,-81.533,5.78741007695134,7.356665066924258
USA0056400,Treasure Coast Energy Center,27.3839,-80.3775,0.0,0.0
USA0055286,Oleander Power Project LP,28.3661,-80.7947,15.444638609180217,15.340345723823397
USA0000609,Cape Canaveral,28.4698,-80.7644,26.466285720615936,26.214590306237945
USA0055318,Indian River,28.4932,-80.7802,3.2268761437101974,3.578561961220264
USA0000715,McManus,31.2136,-81.5462,0.0,0.0
USA0007846,Brandy Branch,30.3206,-81.9472,6.997049046388684,6.8840154741525055
USA0000666,J D Kennedy,30.3648,-81.626,0.0,0.0
USA0056799,Greenland Energy Center,30.1591,-81.5184,1.0877190380414754,2.1696701354946812
USA0000620,Sanford,28.8419,-81.3256,124.88526934226606,89.32562008373925
USA0000689,S O Purdom,30.1623,-84.2007,0.3017837473974528,0.9174873137101952
USA0000688,Arvah B Hopkins,30.4522,-84.4,3.569119036978783,3.3334323923538824
USA0056015,Walton Bainbridge Power Facility,30.911,-84.5473,0.0,0.0
USA0000638,Suwannee River,30.3764,-83.1806,0.0,0.0
USA0007348,Robins,32.5792,-83.5822,0.07131152032616699,0.5899762240759183
USA0007916,Talbot County Energy,32.5892,-84.6917,6.347628355702595,6.343188094636788
USA0000710,Jack McDonough,33.8239,-84.4758,279.4393757144249,183.34786959151472
USA0007764,MPC Generating,33.8119,-83.6953,0.0,0.0
USA0003287,McMeekin,34.0556,-81.2172,0.0,0.0
USA0055386,Columbia Energy Center (SC),33.8697,-81.0178,8.111040970735122,8.868606809766032
USA0003295,Urquhart,33.435,-81.9111,7.872231658657595,9.235284709097028
USA0056150,McIntosh Combined Cycle Facility,32.3478,-81.1817,33.58724309954838,29.148351866131943
USA0003285,Hagood,32.8265,-79.9634,0.0,0.0
USA0002716,W H Weatherspoon,34.5875,-78.9755,0.0,0.0
USA0001016,Butler-Warner Generation Plant,35.0986,-78.8294,0.8598891801433364,2.161217646000151
USA0050555,Rosemary Power Station,36.4517,-77.6594,0.0,0.0
USA0007032,Gravel Neck,37.1575,-76.6911,2.9664733561695984,4.211149913822226
USA0055439,Tenaska Virginia Generating Station,37.8667,-78.3813,12.212676548328785,13.412468124029843
USA0007837,Louisa Generation Facility,38.1181,-78.2139,3.621823316957562,4.304269029453644
USA0007836,Marsh Run Generation Facility,38.5283,-77.7681,3.7224473540673877,4.407952577219683
USA0003804,Possum Point,38.5367,-77.2806,140.04172772403885,108.39847688387543
USA0054832,Brandywine Power Facility,38.6681,-76.8678,0.0,0.0
USA0001564,Vienna Operations,38.4878,-75.8208,0.14813451397493263,0.9510988366300983
USA0055381,Commonwealth Chesapeake,37.9892,-75.54,2.195608544870022,3.3667349782925355
USA0003803,Chesapeake,36.7711,-76.3019,0.0,0.0
USA0003785,Tasley,37.7061,-75.7031,0.0,0.0
USA0005083,Cumberland (NJ),39.3757,-74.9654,0.0,0.0
USA0008012,Croydon CT Generating Station,40.08,-74.8917,10.0706845922822,10.382794785672834
USA0054640,NAEA Lakewood LLC,40.0613,-74.1686,0.0,0.0
USA0007138,Forked River,39.8154,-74.2098,0.0,0.0
USA0050006,Linden Cogen Plant,40.6322,-74.2156,75.28364382433163,73.60567365926617
USA0056964,Bayonne Energy Center,40.6528,-74.0915,6.684802453802066,11.079618341501895
USA0050385,Newark Bay Cogeneration Partnership LP,40.7197,-74.13,0.0,0.0
USA0002504,74th Street,40.768,-73.9515,0.0,0.0
USA0002493,East River,40.7281,-73.9742,49.48023755836825,48.89347206030583
USA0054914,Brooklyn Navy Yard Cogeneration,40.6994,-73.9764,0.0,0.0
USA0054114,Kennedy International Airport Cogen,40.6417,-73.7778,0.0,0.0
USA0002511,E F Barrett,40.6167,-73.6479,32.18792466848261,36.38853641173883
USA0002679,Plant No 2 Freeport,40.6447,-73.5683,0.0,0.0
USA0050292,Bethpage Power Plant,40.7469,-73.4994,1.130649338701622,4.333710900492548
USA0002514,Glenwood,40.8271,-73.6475,0.0,0.0
USA0007869,Glenwood Landing,40.8275,-73.6478,0.0,0.0
USA0002625,Bowline Point,41.2044,-73.9689,64.05961187574218,56.091405869289744
USA0002628,Hillburn,41.1269,-74.1653,0.0,0.0
USA0055375,Astoria Energy,40.7825,-73.8964,7.018481217795923,12.789100197863679
USA0008906,Astoria Generating Station,40.7877,-73.9126,209.32255589156492,198.6422064107307
USA0002398,Bergen Generating Station,40.8375,-74.0244,181.21739964339147,163.59328819324998
USA0002632,Shoemaker,41.4278,-74.4186,0.0,0.0
USA0002390,Sayreville,40.4765,-74.3523,0.6738561253865303,3.2447330392987674
USA0055690,Bethlehem Power Plant,40.6175,-75.3147,36.04859644822532,36.47618576619599
USA0003115,Titus,40.3056,-75.9081,0.0,0.0
USA0003161,Eddystone Generating Station,39.858,-75.323,25.900606700872274,24.540703554720178
USA0000593,Edge Moor,39.7389,-75.5038,18.212212954702174,18.099460026839775
USA0002434,Howard Down,39.4889,-75.0347,0.0,0.0
USA0007288,Sherman Avenue,39.451,-75.0578,0.0,0.0
USA0000599,McKee Run,39.1762,-75.5466,0.0,0.0
USA0010030,NRG Energy Center Dover,39.1495,-75.5473,0.0,0.0
USA0055524,York Energy Center,39.7375,-76.3067,6.7346699057513835,9.643134409511896
USA0001556,Perryman,39.4428,-76.2218,2.528958494027877,4.237305121619875
USA0003116,Tolna,39.7606,-76.6353,0.0,0.0
USA0003111,Mountain,40.1229,-77.1723,0.0,0.0
USA0003131,Shawville,41.0675,-78.3662,4.59742617692364,5.393781461188541
USA0003132,Warren,41.8359,-79.1887,0.0,0.0
USA0003152,Sunbury Generation LP,40.8361,-76.825,0.0,0.0
USA0002682,S A Carlson,42.0933,-79.2478,0.0,0.0
USA0050451,Indeck Yerkes Energy Center,42.9671,-78.9182,0.0,0.0
USA0054131,Fortistar North Tonawanda,43.0483,-78.8539,0.0,0.0
USA0050449,Indeck Silver Springs Energy Center,42.6544,-78.0772,0.0,0.0
USA0054593,Batavia Power Plant,42.9828,-78.1592,0.0,0.0
USA0002594,Oswego Harbor Power,43.4586,-76.5319,52.57976030074871,41.029185440898154
USA0010620,Carthage Energy LLC,43.9842,-75.6225,0.0,0.0
USA0010617,CH Resources Beaver Falls,43.8861,-75.4342,0.0,0.0
USA0050744,Sterling Power Plant,43.0803,-75.601,0.0,0.0
USA0050978,Carr Street Generating Station,43.0613,-76.0824,0.0,0.0
USA0002480,Danskammer Generating Station,41.5712,-73.975,2.0566128826640258,3.2361188548611244
USA0055405,Athens Generating Plant,42.2728,-73.8492,27.331081877750954,22.979963462978155
USA0010725,Selkirk Cogen,42.5744,-73.8592,0.9859486560962295,1.8906491189016696
USA0010190,Castleton Energy Center,42.5375,-73.7433,0.0,0.0
USA0054034,Rensselaer Cogen,42.6253,-73.75,0.0,0.0
USA0050458,Indeck Corinth Energy Center,43.25,-73.8125,0.0,0.0
USA0008002,Newington,43.1,-70.7908,1.7203713079105702,2.718994498765109
USA0001660,Potter Station 2,42.235,-70.9672,0.0,0.0
USA0001595,Kendall Square Station,42.3633,-71.0792,0.0,0.0
USA0054324,Ocean State Power II,42.0099,-71.6701,0.0,0.0
USA0051030,Ocean State Power,42.0097,-71.6689,0.0,0.0
USA0003236,Manchester Street,41.8167,-71.4042,6.260211073296113,7.04217165986771
USA0010307,Bellingham Cogeneration Facility,42.0925,-71.4833,0.0,0.0
USA0001599,Canal,41.7694,-70.5097,30.625142229315838,29.610092732638694
USA0001682,Cleary Flood,41.8653,-71.1061,0.0,0.0
USA0000546,Montville Station,41.4281,-72.1019,6.27802697513392,6.132094357289258
USA0056798,Kleen Energy Systems Project,41.5532,-72.5969,8.96402936036081,15.051293598851446
USA0000562,Middletown,41.5549,-72.5791,14.075193557753476,16.25703371361221
USA0050498,Capital District Energy Center,41.7639,-72.6925,0.0,0.0
USA0056629,Waterbury Generation,41.5444,-73.0417,0.0,0.0
USA0006156,New Haven Harbor,41.284,-72.9043,6.909574963531569,9.392024584369429
USA0002516,Northport,40.9236,-73.3423,114.8314136798379,93.80774799500335
USA0056234,Caithness Long Island Energy Center,40.8142,-72.9403,0.0,0.0
USA0007146,Wading River,40.9569,-72.8774,0.0,0.0
USA0001507,William F Wyman,43.7508,-70.1567,14.040670665914737,15.286741827902505
USA0010803,Ogdensburg Power,44.7258,-75.4417,0.0,0.0
USA0004076,West Marinette,45.0869,-87.6881,0.06493144572255213,0.37139029796500705
USA0001927,Riverside (MN),45.0203,-93.2753,4.6434012134874285,6.767442089536649
USA0002038,Cambridge CT,45.601,-93.2081,0.0,0.0
USA0002176,Glendive GT,47.0539,-104.74,0.0,0.0
USA0056908,Dave Gates Generating Station,46.1047,-112.8766,0.0,0.0
USA0007870,Encogen,48.746,-122.486,0.1936806762771776,1.1303458896585254
USA0054537,Ferndale Generating Station,48.8288,-122.6867,0.0,0.0
USA0000246,Humboldt Bay,40.7415,-124.2103,0.0,0.0
USA0054854,Sun Peak Generating Station,36.1375,-115.0339,0.7296595629082211,3.2117717328153232
USA0001403,Nine Mile Point,29.9472,-90.1458,219.54098242367286,151.03342198795886
USA0001402,Little Gypsy,30.0051,-90.4617,34.43598630317151,34.107666482961974
USA0008056,Waterford 1 & 2,29.9989,-90.4768,20.808427586345015,20.174984089956887
USA0001391,Louisiana 1,30.4922,-91.1864,2.5560801298161735,4.412126783837347
USA0001394,Willow Glen,30.2743,-91.1164,13.142928542147072,15.423697345262605
USA0002050,Baxter Wilson,32.2831,-90.9306,29.511579024911534,26.026652809956808
USA0002053,Rex Brown,32.357,-90.213,0.0,0.0
USA0008054,Gerald Andrus,33.35,-91.1167,8.42160762253311,8.304514412321746
USA0055075,Pine Bluff Energy Center,34.2181,-91.9025,0.0,0.0
USA0001404,Sterlington,32.7047,-92.0792,0.0,0.0
USA0000203,McClellan (AR),33.5648,-92.7917,0.0,0.0
USA0003476,Knox Lee,32.3766,-94.6415,1.9975949448087393,3.7319543068653527
USA0001417,Lieberman,32.7047,-93.9597,0.0,0.0
USA0055132,Tenaska Gateway Generating Station,32.0178,-94.6197,10.364337379154335,10.55181367203051
USA0003504,Stryker Creek,31.9398,-94.9898,5.213812866629411,4.515290219823621
USA0055062,Tenaska Frontier Generation Station,30.5924,-95.9178,9.780499147471492,10.37930742419508
USA0050109,Paris Energy Center,33.6968,-95.5577,0.3807720785478862,1.2954525772749699
USA0004195,Powerlane Plant,33.1707,-96.1264,0.0,0.0
USA0054817,Johnson County,32.3994,-97.4078,0.7190780022611044,2.16820027556296
USA0003452,Lake Hubbard,32.8358,-96.5458,23.8436620191213,24.727026738383643
USA0003628,R W Miller,32.6581,-98.3103,4.615107726914441,4.989595460523426
USA0003611,O W Sommers,29.3081,-98.3242,13.70935642493033,13.210664050937524
USA0003612,V H Braunig,29.2567,-98.3825,28.99103614879752,25.581887154034256
USA0003559,Silas Ray,25.9131,-97.5214,0.0,0.0
USA0007975,Pyramid,32.2363,-108.5494,0.0,0.0
USA0058562,Montana Power Station,31.8239,-106.2119,0.0,0.0
USA0003456,Newman,31.9836,-106.4318,29.016821831985492,31.897366202609206
USA0000009,Copper,31.7569,-106.375,0.0,0.0
USA0003492,Morgan Creek,32.3358,-100.9156,2.017345315175487,3.2163633700323944
USA0003494,Permian Basin,31.5839,-102.9633,0.0,0.0
USA0003482,Jones,33.5239,-101.7392,13.806456074589512,16.747369837013306
USA0003485,Plant X,34.1661,-102.4114,0.0,0.0
USA0055039,Rio Bravo,35.026,-106.644,0.0,0.0
USA0056445,Spindle Hill Energy Center,40.0922,-104.8878,0.0,0.0
USA0055645,Blue Spruce Energy Center,39.7479,-104.6814,1.4378570144064127,3.8499061407760715
USA0055504,Limon Generating Station,39.2038,-103.7005,0.0,0.0
USA0003344,Huron,44.3695,-98.1722,0.0,0.0
USA0007237,Angus Anson,43.6035,-96.6356,0.0,0.0
USA0001217,Earl F Wisdom,43.1606,-95.2569,0.0,0.0
USA0002290,Jones Street,41.2515,-95.9227,0.0,0.0
USA0006373,Rokeby,40.7316,-96.7364,0.0,0.0
USA0002250,J Street,40.8079,-96.7107,0.0,0.0
USA0002265,Hallam,40.5587,-96.7862,0.0,0.0
USA0002266,Hebron,40.1879,-97.5779,0.0,0.0
USA0002241,C W Burdick,40.9228,-98.3269,0.0,0.0
USA0001248,Hutchinson Energy Center,38.0906,-97.8747,0.0,0.0
USA0006095,Sooner,36.4531,-97.0528,25.60458612909782,22.084488972462637
USA0002952,Muskogee,35.7614,-95.2873,57.97856702277576,46.519640728469966
USA0002963,Northeastern,36.4317,-95.7008,51.651639626874655,45.24091806765728
USA0006068,Jeffrey Energy Center,39.2865,-96.1172,108.13625227264369,78.19251079701522
USA0001252,Tecumseh Energy Center,39.0539,-95.5689,0.0,0.0
USA0001250,Lawrence Energy Center,39.0072,-95.2692,5.0069108923405725,5.330899854507959
USA0002098,Lake Road (MO),39.7246,-94.8773,0.0,0.0
USA0006065,Iatan,39.4472,-94.98,60.16160949409682,48.651324384378945
USA0006064,Nearman Creek,39.1681,-94.6975,2.398033885134813,4.058297350104556
USA0002079,Hawthorn,39.1306,-94.4778,34.67047191426663,35.81604492239777
USA0002094,Sibley,39.1783,-94.1844,4.931851606596048,7.452925232222101
USA0002080,Montrose,38.3114,-93.9348,0.0,0.0
USA0001241,La Cygne,38.3481,-94.6456,52.10787348465685,42.91530729595523
USA0002076,Asbury,37.3613,-94.5893,0.0,0.0
USA0006138,Flint Creek,36.2561,-94.5241,2.3271272299619454,4.503126049246339
USA0010671,AES Shady Point LLC,35.1931,-94.6458,0.0,0.0
USA0006195,John Twitty Energy Center,37.1517,-93.388,2.2940997215143173,2.5186873818832987
USA0006155,Rush Island,38.1312,-90.2632,37.2030356852434,33.47591432005965
USA0002104,Meramec,38.4017,-90.3358,23.2649082626475,22.248225727815246
USA0002103,Labadie,38.5622,-90.8377,154.54075679601607,108.37016258509512
USA0002107,Sioux,38.9155,-90.2902,32.697734188804176,31.514324713184763
USA0000891,Havana,40.2797,-90.08,2.923769111981929,3.396809451367968
USA0001104,Burlington (IA),40.7412,-91.1167,0.0,0.0
USA0001167,Muscatine Plant #1,41.3917,-91.0569,0.0,0.0
USA0006664,Louisa,41.3181,-91.0931,10.845413877332756,9.556768688886866
USA0001073,Prairie Creek,41.944,-91.6392,0.0,0.0
USA0006254,Ottumwa,41.0961,-92.5558,7.2876094514233625,7.800679615353436
USA0001131,Streeter Station,42.5267,-92.4394,0.0,0.0
USA0004143,Genoa,43.5589,-91.2325,0.474821014688575,1.2003143090840656
USA0001047,Lansing,43.3359,-91.1675,0.3853858621921303,1.0949714485457291
USA0004078,Weston,44.8606,-89.6553,14.665964867885483,13.800545668970917
USA0004072,Pulliam,44.54,-88.0086,0.6936079841718676,1.4470630685983747
USA0004125,Manitowoc,44.082,-87.6558,0.0,0.0
USA0004041,South Oak Creek,42.8457,-87.8294,50.6623010604004,46.52991739957065
USA0056068,Elm Road Generating Station,42.8492,-87.8336,68.34505814706485,61.45682921229548
USA0006170,Pleasant Prairie,42.5381,-87.9033,41.705937573020414,42.36753681233493
USA0008023,Columbia (WI),43.4864,-89.4203,17.526463747868423,15.805600745583934
USA0000892,Hennepin Power Station,41.3028,-89.315,0.0,0.0
USA0006016,Duck Creek,40.4663,-89.9841,1.5103334734271843,3.6018632578827843
USA0000879,Powerton,40.5408,-89.6786,68.86765630872043,56.44280267407827
USA0000856,E D Edwards,40.5958,-89.6631,6.347865152161569,8.461629395874574
USA0000884,Will County,41.6334,-88.0629,2.993397903080182,5.599341941127028
USA0000874,Joliet 9,41.4931,-88.1153,0.0,0.0
USA0000384,Joliet 29,41.4946,-88.1238,52.72513962215575,47.26336841948217
USA0000883,Waukegan,42.3833,-87.8133,22.974650157999825,29.497651357557093
USA0001825,J B Sims,43.0706,-86.235,0.0,0.0
USA0001710,J H Campbell,42.9103,-86.2007,43.48491973242718,37.220876940722455
USA0001830,James De Young,42.7956,-86.1133,0.0,0.0
USA0050835,TES Filer City Station,44.2173,-86.2891,0.0009557118479720858,0.05206938676090462
USA0001702,Dan E Karn,43.645,-83.8401,68.48304781834389,52.955293385115006
USA0001831,Eckert Station,42.7184,-84.5581,0.29050137892185696,1.01902818613659
USA0001743,St Clair,42.7642,-82.4719,66.67233957384435,56.72073993326468
USA0006034,Belle River,42.7756,-82.495,84.64866421470546,68.60215710810283
USA0008226,Cheswick Power Plant,40.5383,-79.7906,8.62598104165673,7.34877514632112
USA0010743,Morgantown Energy Facility,39.6397,-79.9606,0.0,0.0
USA0002828,Cardinal,40.2522,-80.6486,89.9022868977349,72.66613765244423
USA0003948,Mitchell (WV),39.8297,-80.8153,69.62192607311535,56.35735293199265
USA0002840,Conesville,40.1842,-81.8811,55.62647810831779,48.65794049678571
USA0001740,River Rouge,42.2739,-83.1119,0.0,0.0
USA0001745,Trenton Channel,42.1217,-83.1808,3.5300675806416946,4.802256009565932
USA0001040,Whitewater Valley,39.8028,-84.8953,0.0,0.0
USA0006041,H L Spurlock,38.7,-83.8181,53.77857758007323,44.38931267166552
USA0002850,J M Stuart,38.6361,-83.6939,119.11602117410544,80.9822585282078
USA0006018,East Bend,38.9036,-84.8514,8.973210747696754,10.668218789990938
USA0001355,E W Brown,37.7883,-84.7126,51.18373751365654,39.816794049942814
USA0006031,Killen Station,38.6903,-83.4803,4.876476643497448,4.249193776902719
USA0002876,Kyger Creek,38.9144,-82.1289,33.62610567135033,32.625517959475616
USA0008102,General James M Gavin,38.9347,-82.1158,235.61549226301355,155.99505274319054
USA0006264,Mountaineer,38.9794,-81.9344,44.922561687691086,43.67140817039885
USA0003935,John E Amos,38.4731,-81.8233,232.92108748321456,142.2347926686138
USA0010151,Grant Town Power Plant,39.5618,-80.1631,0.0,0.0
USA0003936,Kanawha River,38.2056,-81.4211,2.0819996676456616,3.266307258793809
USA0002727,Marshall (NC),35.5975,-80.9658,190.28916857560176,141.36249444560312
USA0008042,Belews Creek,36.2811,-80.0603,200.00145251161703,136.7335307986121
USA0002718,G G Allen,35.1897,-81.0122,42.223027788260595,41.16214084561928
USA0002721,James E. Rogers Energy Complex,35.22,-81.7594,62.03199859078758,52.06176739513987
USA0002706,Asheville,35.4731,-82.5417,9.00671655487065,9.664895185025653
USA0056808,Virginia City Hybrid Energy Center,36.9164,-82.3381,4.850624002837895,5.9461214870932615
USA0003396,Bull Run,36.0211,-84.1567,17.780334297662233,18.404712283163875
USA0003407,Kingston,35.8992,-84.5194,63.67388035982122,50.36481275980982
USA0003403,Gallatin (TN),36.3156,-86.4006,89.70197032061958,70.99477105969883
USA0001008,R Gallagher,38.2636,-85.8381,0.0,0.0
USA0001356,Ghent,38.7497,-85.035,163.01607385225867,122.94227065152685
USA0006071,Trimble County,38.5847,-85.4117,180.4466467613125,120.85286529290198
USA0000983,Clifty Creek,38.7378,-85.4206,41.91861727640257,39.10072271140021
USA0001001,Cayuga,39.9242,-87.4244,24.483871097564275,20.518002653354355
USA0006213,Merom,39.0694,-87.5108,19.31871629854765,18.77908726414759
USA0001004,Edwardsport,38.8067,-87.2472,10.029601527768275,10.189184796818502
USA0001378,Paradise,37.2608,-86.9783,161.61523712050953,109.10468739982505
USA0006823,D B Wilson,37.4497,-87.0806,4.364870578102879,4.574088187315321
USA0006166,Rockport,37.9256,-87.0372,228.30932143420512,151.6995389566888
USA0001374,Elmer Smith,37.7942,-87.0608,1.8068555572925977,3.958525613236312
USA0006705,Warrick,37.915,-87.3328,17.424721190543504,20.061175869966924
USA0006639,R D Green,37.6461,-87.5,5.401599927272242,6.037790134891657
USA0006137,A B Brown,37.9053,-87.715,7.1440917949508815,9.784271867976894
USA0006113,Gibson,38.3722,-87.7658,360.8375501621275,195.42090455351075
USA0006017,Newton,38.9361,-88.2781,4.689822220353857,4.8671166252016
USA0000876,Kincaid Generation LLC,39.5906,-89.4964,30.477260249673666,27.546133525481878
USA0000963,Dallman,39.7548,-89.6024,2.8237409863309675,4.0924235146491155
USA0000861,Coffeen,39.0586,-89.4031,12.303809865034342,10.162922425005043
USA0000889,Baldwin Energy Complex,38.205,-89.8544,89.37559529804123,70.13125041742381
USA0055856,Prairie State Generating Station,38.2792,-89.6669,73.61861223157206,57.46084288690056
USA0000976,Marion,37.6197,-88.9531,1.1914414290880873,2.393737999174137
USA0006768,Sikeston Power Station,36.8791,-89.6209,0.39927488236741543,1.3715519075961304
USA0002167,New Madrid,36.5147,-89.5617,42.17365011947871,36.79467824038054
USA0000887,Joppa Steam,37.2094,-88.8589,22.634670606838654,22.12284457415047
USA0001379,Shawnee,37.1517,-88.775,67.1623409959303,57.5166969591767
USA0003399,Cumberland (TN),36.3903,-87.6539,159.67660664059196,103.54021035903722
USA0003406,Johnsonville,36.0278,-87.9861,60.802317110679994,46.32631884942358
USA0056456,Plum Point Energy Station,35.6644,-89.9489,6.494120920387257,8.069878492327913
USA0055076,Red Hills Generating Facility,33.3761,-89.2183,1.6242309233927201,2.318081028746315
USA0000010,Greene County,32.6017,-87.7811,27.035804947371894,25.363772687474448
USA0000008,Gorgas,33.6443,-87.1965,21.742514253547604,18.789597305703154
USA0006002,James H Miller Jr,33.6319,-87.0597,197.44717402148083,123.46862684161758
USA0000026,E C Gaston,33.2442,-86.4581,97.42552718806398,72.95853351736464
USA0000007,Gadsden,34.0128,-85.9708,0.0,0.0
USA0000708,Hammond,34.2528,-85.3456,18.402099382108574,18.97563397342344
USA0000056,Charles R Lowman,31.488,-87.9107,3.507690936053875,3.97115671858679
USA0000003,Barry,31.0069,-88.0103,116.22668637136616,77.84250028913618
USA0000645,Big Bend,27.7944,-82.4036,99.45068171250264,79.0615301949321
USA0007242,Polk,27.7286,-81.9897,13.183957951816597,14.07564277507792
USA0000667,Northside Generating Station,30.4172,-81.5525,54.19770589124061,47.12222630538637
USA0000628,Crystal River,28.9656,-82.6977,119.73467517049005,80.24374211011867
USA0006257,Scherer,33.0606,-83.8075,456.71940446171277,231.98990193662323
USA0000728,Yates,33.4622,-84.8986,10.543420445113256,11.898544675051921
USA0000703,Bowen,34.1256,-84.9222,401.0248775632675,209.73505866359963
USA0003298,Williams,33.0158,-79.9297,7.363117539104328,8.783142779312502
USA0000130,Cross,33.3715,-80.1132,164.3973059896884,114.94037114257031
USA0003297,Wateree,33.8264,-80.6228,10.584016894373162,12.49898089865825
USA0006249,Winyah,33.3318,-79.3572,24.162941897689443,21.708756042292865
USA0010379,CPI USA NC Roxboro,36.435,-78.9619,0.0,0.0
USA0002712,Roxboro,36.4833,-79.0731,184.7409953299712,123.53992534154479
USA0006250,Mayo,36.5278,-78.8917,8.56952339583739,7.515584981593292
USA0003809,Yorktown,37.2144,-76.4611,42.22501051274031,36.683128140193766
USA0010377,James River Genco LLC,37.2939,-77.2697,0.0,0.0
USA0003797,Chesterfield,37.3822,-77.3833,99.310382342161,80.63896438604124
USA0054081,Spruance Genco LLC,37.4556,-77.4308,0.0,0.0
USA0001572,Dickerson,39.2097,-77.4644,18.280900554589106,17.634793746477822
USA0054304,Birchwood Power,38.2667,-77.3147,0.0,0.0
USA0001573,Morgantown Generating Plant,38.3592,-76.9767,80.98745592674464,69.02180209969183
USA0001571,Chalk Point LLC,38.5444,-76.6861,241.6355710093828,158.0540536621939
USA0000602,Brandon Shores,39.18,-76.5389,89.60367353283877,80.58105923836006
USA0001554,Herbert A Wagner,39.1781,-76.5268,32.7840369765181,27.693404138708395
USA0000594,Indian River Generating Station,38.5857,-75.2341,2.3562256340762855,4.037476051295736
USA0002378,B L England,39.2908,-74.6364,0.0,0.0
USA0050888,Northampton Generating Company LP,40.6917,-75.4792,0.0,0.0
USA0054634,St Nicholas Cogen Project,40.8222,-76.1736,0.0,0.0
USA0050879,Wheelabrator Frackville Energy,40.7824,-76.1762,0.0,0.0
USA0050776,Panther Creek Energy Facility,40.8556,-75.8781,0.0,0.0
USA0050611,Westwood Generation LLC,40.6191,-76.45,0.0,0.0
USA0003118,Conemaugh,40.3842,-79.0611,89.2420561964663,71.29372789779198
USA0003136,Keystone,40.6604,-79.3411,90.43498203448492,70.09553964239788
USA0010143,Colver Power Project,40.55,-78.8,0.0,0.0
USA0010603,Ebensburg Power,40.455,-78.7472,0.0,0.0
USA0010641,Cambria Cogen,40.4742,-78.7014,0.0,0.0
USA0003149,TalenEnergy Montour,41.0714,-76.6672,62.84472467703713,50.60513698269508
USA0002535,Cayuga Operating Company,42.6028,-76.6336,0.0,0.0
USA0002527,Greenidge Generation LLC,42.6789,-76.9483,0.0,0.0
USA0002364,Merrimack,43.1411,-71.4692,1.02862564828548,1.730111335219362
USA0002367,Schiller,43.0978,-70.7842,0.10542668797949273,0.7301093410671012
USA0001619,Brayton Point,41.7103,-71.1931,74.99977983837343,63.75888793446514
USA0000568,Bridgeport Station,41.1706,-73.1844,3.3364268446030487,5.867545069251643
USA0001843,Shiras,46.5306,-87.3922,0.0,0.0
USA0001769,Presque Isle,46.5789,-87.395,1.1273074194547092,2.2654522342139156
USA0010075,Taconite Harbor Energy Center,47.5314,-90.9114,0.0,0.0
USA0003982,Bay Front,46.5872,-90.9017,0.0,0.0
USA0001915,Allen S King,45.03,-92.7786,3.582010387569831,3.877959149922468
USA0006090,Sherburne County,45.3808,-93.8931,152.71907854980586,103.94668430000345
USA0001943,Hoot Lake,46.2906,-96.0433,0.0,0.0
USA0006098,Big Stone,45.3037,-96.5101,1.1173300511743745,2.0614838327769083
USA0056786,Spiritwood Station,46.9264,-98.4997,0.0,0.0
USA0002790,R M Heskett,46.8669,-100.8836,0.0,0.0
USA0002823,Milton R Young,47.0659,-101.2131,12.7110750013492,11.924571193306551
USA0006030,Coal Creek,47.3777,-101.1571,34.102729336432226,32.98277446714233
USA0002824,Stanton,47.2866,-101.3319,0.0,0.0
USA0002817,Leland Olds,47.2808,-101.3212,5.04548095922919,6.762189981356116
USA0006089,Lewis & Clark,47.6785,-104.1566,0.0,0.0
USA0006469,Antelope Valley,47.3705,-101.8357,16.93005714642199,19.033372760394922
USA0008222,Coyote,47.2214,-101.8157,0.0,0.0
USA0056609,Dry Fork Station,44.3889,-105.4608,2.448056060744345,4.498460776591517
USA0007504,Neil Simpson II,44.2856,-105.3833,0.0,0.0
USA0006101,Wyodak,44.2901,-105.3815,0.0,0.0
USA0056596,Wygen III,44.2919,-105.3806,0.0,0.0
USA0006076,Colstrip,45.8831,-106.614,152.7526948464304,107.54497906670962
USA0055749,Hardin Generator Project,45.7578,-107.6,0.0,0.0
USA0006106,Boardman,45.6932,-119.8088,4.530742928448483,7.35450040617066
USA0056224,TS Power Plant,40.7461,-116.5297,0.0,0.0
USA0008224,North Valmy,40.8813,-117.1516,3.096505564502596,3.9972506561612606
USA0002324,Reid Gardner,36.6573,-114.6333,0.7090472128914327,1.9586980706755759
USA0006055,Big Cajun 2,30.7261,-91.3692,76.58086993838927,63.007730711269474
USA0006009,White Bluff,34.4228,-92.1406,68.49245051175141,56.34752577733403
USA0000051,Dolet Hills,32.0306,-93.5692,4.579034458532223,3.8720329055226737
USA0056564,John W Turk Jr Power Plant,33.6497,-93.8119,4.595414325306743,5.765311048837061
USA0006147,Monticello,33.0917,-95.0417,62.18023248329574,46.742261416754324
USA0007902,Pirkey,32.4607,-94.4852,9.09875075245069,9.460669240077154
USA0006146,Martin Lake,32.2606,-94.5706,168.37264614571143,117.51238962842727
USA0006190,Brame Energy Center,31.395,-92.7167,46.300827835229285,39.61782672707284
USA0001393,R S Nelson,30.2844,-93.2911,65.41745176965583,55.144227420291415
USA0003470,W A Parish,29.4828,-95.6311,467.57843183880726,206.31976621848787
USA0006178,Coleto Creek,28.7128,-97.2142,2.3983730468200406,3.6962640588990414
USA0006179,Fayette Power Project,29.9172,-96.7506,54.45932665403443,44.30007935951568
USA0000298,Limestone,31.4219,-96.2525,92.60350324965883,72.95070426204512
USA0003497,Big Brown,31.8206,-96.0544,21.032226408855266,20.879824363586668
USA0006772,Hugo,34.0158,-95.3206,1.0215823725650193,2.1794709579504294
USA0056611,Sandy Creek Energy Station,31.4744,-96.9571,17.429635669802376,17.810501197511094
USA0000127,Oklaunion,34.0825,-99.1753,6.8540401864467935,8.236910738511053
USA0007097,J K Spruce,29.3097,-98.3203,45.257521503693255,39.483239484676375
USA0006181,J T Deely,29.3081,-98.3228,15.789459932771315,14.188312625838734
USA0006183,San Miguel,28.7044,-98.4775,0.0,0.0
USA0000160,Apache Station,32.0603,-109.8931,6.374749115109639,6.958289868991231
USA0000108,Holcomb,37.9308,-100.9725,0.0,0.0
USA0000492,Martin Drake,38.8244,-104.8333,0.0,0.0
USA0008219,Ray D Nixon,38.6335,-104.7058,0.0,0.0
USA0000470,Comanche (CO),38.2081,-104.5747,109.3290034641472,88.41495821773285
USA0000087,Escalante,35.4159,-108.082,0.0,0.0
USA0000113,Cholla,34.9394,-110.3033,11.89241359580851,11.443188243523714
USA0004941,Navajo,36.9047,-111.3886,328.1007786879806,222.87056544684432
USA0000527,Nucla,38.2383,-108.5069,0.012627525334653044,0.18629856443548534
USA0002442,Four Corners,36.69,-108.4814,84.50871718948426,68.81438563664874
USA0002451,San Juan,36.8006,-108.4386,139.62603228393405,107.52787748062319
USA0000525,Hayden,40.4856,-107.185,2.595981087513312,3.570628139627867
USA0006021,Craig (CO),40.4627,-107.5912,59.34247270512666,53.555122288348436
USA0007790,Bonanza,40.0864,-109.2844,6.635816323621134,7.755425330633548
USA0006165,Hunter,39.1747,-111.0289,131.86220410157708,113.41193463193184
USA0008069,Huntington,39.3792,-111.0781,40.222651713971494,40.000346209967425
USA0004162,Naughton,41.7581,-110.5983,10.567681022709575,9.584564522563733
USA0008066,Jim Bridger,41.7378,-108.7875,158.74603000740007,110.19788282710837
USA0004158,Dave Johnston,42.8378,-105.7769,11.437765259862765,11.541978134525934
USA0000477,Valmont,40.0195,-105.202,0.0,0.0
USA0000469,Cherokee,39.8073,-104.9645,60.99590393950869,60.40441361044536
USA0006248,Pawnee,40.2217,-103.6803,1.9782642653862657,3.324208807515057
USA0006077,Gerald Gentleman,41.0808,-101.1408,39.50503730801316,36.098016924512905
USA0007343,George Neal South,42.3006,-96.3617,5.788550738819797,6.639977955066037
USA0001091,George Neal North,42.2998,-96.3617,4.214551545140894,5.7321825706998
USA0001082,Walter Scott Jr Energy Center,41.18,-95.8408,86.04272417716851,70.41959029641437
USA0002277,Sheldon,40.5589,-96.7847,0.0,0.0
USA0000059,Platte,40.8548,-98.3482,0.0,0.0
USA0003319,Jefferies,33.2444,-79.9909,0.0,0.0
USA0006431,Gorge,48.6981,-121.2086,0.0,0.0
USA0006505,Oak Grove,45.122,-122.0699,0.0,0.0
USA0060019,Greenwood Solar Farm,43.1056,-82.6964,0.0,0.0
USA0004005,French Island,43.8292,-91.2597,0.0,0.0
USA0054415,Cadillac Renewable Energy,44.2617,-85.4352,0.0,0.0
USA0010822,Grayling Generating Station,44.6049,-84.6906,0.0,0.0
USA0003264,W S Lee,34.6022,-82.435,0.0,0.0
USA0057241,Gainesville Renewable Energy Center,29.7675,-82.3964,0.0,0.0
USA0010382,Lumberton,34.59,-78.9968,0.0,0.0
USA0010774,Southampton Power Station,36.6525,-76.9953,0.0,0.0
USA0010771,Hopewell Power Station,37.2978,-77.283,0.0,0.0
USA0010773,Altavista Power Station,37.1187,-79.2736,0.0,0.0
USA0007701,Fairless Hills,40.1405,-74.7506,0.0,0.0
USA0050243,Bucksport Generation LLC,44.5738,-68.8046,0.0,0.0
USA0058054,Burgess BioPower,44.4719,-71.1753,0.0,0.0
USA0000589,J C McNeil,44.4917,-73.2081,0.0,0.0
USA0002039,Elk River,45.2968,-93.5584,0.3779707063049884,1.2853824084306953
USA0000377,Grayson,34.1556,-118.2782,0.0,0.0
USA0000126,H Wilson Sundt Generating Station,32.16,-110.9047,13.015224017132777,11.922542546771062
USA0007887,Terry Bundy Generating Station,40.9097,-96.6131,0.0,0.0
USA0003251,H B Robinson,34.4017,-80.1589,8.229654281140622,9.575104175371273
USA0000621,Turkey Point,25.4356,-80.3308,168.41230157202565,106.22395223357228
USA0002830,Walter C Beckjord,38.9917,-84.2981,0.0,0.0
USA0002192,Mystic,45.2257,-109.7625,0.0,0.0
USA0001559,Riverside (MD),39.2369,-76.5133,0.0,0.0
USA0003992,Blount Street,43.0789,-89.3744,0.0,0.0
USA0055786,Edgewood Energy LLC,40.7861,-73.2931,0.0,0.0
USA0055192,Osceola (FL),28.1289,-81.0978,2.7789763515583776,3.033901456285674
USA0055151,La Paloma Generating LLC,35.2956,-119.5919,37.678783863495134,33.61766659784853
USA0060244,Marshall,61.8782,-162.0851,0.0,0.0
